City_ID,City,Cloudiness,Country,Date,Humidity,Lat,Lng,Max Temp,Wind Speed
0,vaini,92,IN,1528746298,98,15.34,74.49,69.74,5.14
1,punta arenas,0,CL,1528743600,80,-53.16,-70.91,42.8,10.29
2,kodiak,1,US,1528743180,59,39.95,-94.76,91.4,11.41
3,mount gambier,92,AU,1528746302,97,-37.83,140.78,52.19,9.62
4,mataura,56,NZ,1528746290,93,-46.19,168.86,27.53,4.36
5,tiksi,24,RU,1528746365,71,71.64,128.87,43.46,11.74
6,georgetown,92,GY,1528746306,84,6.8,-58.16,80.0,6.82
7,mahebourg,20,MU,1528743600,78,-20.41,57.7,73.4,6.93
8,westport,75,IE,1528743600,76,53.8,-9.52,57.2,10.29
9,kalmunai,44,LK,1528746437,84,7.42,81.82,79.37,8.61
10,thompson,75,CA,1528743600,53,55.74,-97.86,77.0,10.29
11,alofi,12,NU,1528743600,94,-19.06,-169.92,71.6,5.82
12,rikitea,56,PF,1528746297,100,-23.12,-134.97,76.04,21.81
13,oistins,40,BB,1528743600,66,13.07,-59.53,86.0,24.16
14,kruisfontein,0,ZA,1528746315,86,-34.0,24.73,59.03,10.18
15,katsuura,75,JP,1528742220,100,33.93,134.5,68.0,5.82
16,clyde river,0,CA,1528746439,100,70.47,-68.59,32.39,3.13
17,busselton,80,AU,1528746314,100,-33.64,115.35,62.18,16.89
18,dikson,8,RU,1528746310,88,73.51,80.55,32.93,11.97
19,riyadh,0,SA,1528743600,9,24.63,46.72,93.2,6.93
20,nantucket,1,US,1528743360,51,41.28,-70.1,66.2,13.87
21,hare bay,75,CA,1528743600,61,48.86,-53.99,46.4,8.05
22,arraial do cabo,40,BR,1528743600,69,-22.97,-42.02,75.2,11.41
23,hermanus,0,ZA,1528746289,85,-34.42,19.24,39.59,2.57
24,marystown,76,CA,1528746441,66,47.17,-55.16,51.2,8.16
25,xinyang,56,CN,1528746441,71,32.13,114.07,70.46,7.72
26,souillac,75,FR,1528745400,93,45.6,-0.6,62.6,12.75
27,hilo,90,US,1528743420,65,19.71,-155.08,78.8,3.36
28,pevek,8,RU,1528746349,67,69.7,170.27,45.98,7.49
29,kapaa,20,US,1528743360,74,22.08,-159.32,78.8,12.75
30,lakes entrance,92,AU,1528746333,100,-37.88,147.99,48.23,8.39
31,ushuaia,75,AR,1528743600,86,-54.81,-68.31,35.6,1.12
32,zagare,40,LT,1528744800,88,56.36,23.25,62.6,13.87
33,quatre cocos,20,MU,1528743600,78,-20.21,57.76,73.4,6.93
34,fengzhen,0,CN,1528746443,81,40.43,113.15,44.18,2.91
35,puerto ayora,75,EC,1528743600,57,-0.74,-90.35,80.6,19.46
36,potiskum,0,NG,1528746444,62,11.71,11.08,80.99,8.61
37,jamestown,24,AU,1528746330,66,-33.21,138.6,50.57,17.11
38,tessalit,12,ML,1528746308,20,20.2,1.01,88.01,3.47
39,yaan,20,NG,1528746445,70,7.38,8.57,80.99,8.28
40,palmares do sul,90,BR,1528744320,78,-30.26,-50.51,77.0,25.28
41,kharian,0,PK,1528743600,66,32.81,73.87,84.2,2.68
42,nikki,20,BJ,1528746445,76,9.94,3.21,77.84,3.36
43,champerico,40,MX,1528742580,49,16.38,-93.6,89.6,4.7
44,bambous virieux,20,MU,1528743600,78,-20.34,57.76,73.4,6.93
45,whitehorse,75,CA,1528743600,54,60.72,-135.06,53.6,4.7
46,khatanga,0,RU,1528746289,48,71.98,102.47,52.91,9.84
47,airai,0,TL,1528746340,83,-8.93,125.41,58.31,2.01
48,bluff,0,AU,1528746320,78,-23.58,149.07,46.43,2.13
49,mecca,0,SA,1528743600,22,21.43,39.83,98.6,3.36
50,flinders,0,AU,1528743600,100,-34.58,150.85,42.8,9.17
51,nanortalik,36,GL,1528746364,89,60.14,-45.24,38.06,27.29
52,tevaitoa,48,PF,1528746448,100,-16.78,-151.5,78.38,15.1
53,havre-saint-pierre,20,CA,1528743600,53,50.23,-63.6,50.0,23.04
54,oussouye,40,SN,1528743600,74,12.49,-16.54,84.2,4.7
55,new norfolk,75,AU,1528743600,86,-42.78,147.06,41.0,8.05
56,milove,0,RU,1528746450,53,49.38,40.13,56.33,6.6
57,agaro,92,ET,1528746450,100,7.86,36.59,57.86,1.12
58,bismarck,1,US,1528744500,40,46.81,-100.78,73.4,8.05
59,pavlodar,0,KZ,1528743600,87,52.28,76.96,53.6,4.47
60,caucaia,0,BR,1528743600,54,-3.73,-38.66,84.2,20.8
61,chuy,64,UY,1528746295,97,-33.69,-53.46,60.38,15.77
62,husavik,92,CA,1528746451,100,50.56,-96.99,56.42,18.68
63,port alfred,0,ZA,1528746302,95,-33.59,26.89,63.08,11.3
64,horsham,92,AU,1528746452,97,-36.71,142.2,52.1,13.65
65,bulungu,0,CD,1528746452,61,-4.54,18.6,70.46,5.37
66,luderitz,0,NA,1528746427,60,-26.65,15.16,59.03,3.36
67,sindor,76,RU,1528746453,77,62.87,51.9,39.59,3.47
68,avarua,0,CK,1528746305,100,-21.21,-159.78,74.96,18.01
69,faya,75,SA,1528743600,60,18.39,42.45,71.6,5.82
70,palmer,75,AU,1528745760,76,-34.85,139.16,57.2,23.04
71,ambilobe,0,MG,1528746358,64,-13.19,49.05,75.41,11.97
72,nikolskoye,75,RU,1528743600,88,59.7,30.79,62.6,8.95
73,shache,20,CN,1528746380,80,38.42,77.24,59.75,2.91
74,grootfontein,0,NA,1528746454,47,-19.56,18.1,43.46,6.82
75,saint-philippe,1,CA,1528744500,30,45.36,-73.48,71.6,4.7
76,nuuk,20,GL,1528743000,66,64.17,-51.74,48.2,5.82
77,port-gentil,40,GA,1528743600,83,-0.72,8.78,78.8,8.05
78,cape town,0,ZA,1528743600,87,-33.93,18.42,46.4,1.12
79,sungaipenuh,56,ID,1528746455,93,-2.08,101.38,65.69,1.12
80,minot,1,US,1528743360,35,48.23,-101.3,69.8,11.41
81,nacala,12,MZ,1528746456,91,-14.56,40.69,78.2,13.42
82,lukiv,68,UA,1528746456,76,51.05,25.4,69.74,7.72
83,sao joao da barra,24,BR,1528746457,96,-21.64,-41.05,75.05,21.14
84,ribeira grande,20,PT,1528745400,88,38.52,-28.7,71.6,5.82
85,faanui,8,PF,1528746337,100,-16.48,-151.75,79.19,15.55
86,linxia,0,CN,1528746432,67,35.6,103.21,39.59,2.46
87,farafangana,48,MG,1528746458,100,-22.82,47.83,73.61,8.95
88,naze,20,NG,1528743600,88,5.43,7.07,80.6,5.82
89,provideniya,68,RU,1528746458,100,64.42,-173.23,36.71,1.57
90,iralaya,56,HN,1528746458,100,15.0,-83.23,78.02,7.27
91,ancud,56,CL,1528746375,82,-41.87,-73.83,44.63,2.57
92,mvuma,0,ZW,1528746459,69,-19.28,30.53,49.58,12.19
93,abu kamal,0,SY,1528746460,18,34.45,40.92,77.66,9.28
94,castro,88,CL,1528746335,86,-42.48,-73.76,44.99,2.35
95,iqaluit,20,CA,1528743600,80,63.75,-68.52,33.8,5.82
96,nemuro,92,JP,1528746460,100,43.32,145.57,49.49,27.63
97,coahuayana,80,MX,1528746461,64,18.62,-100.35,79.73,2.91
98,monrovia,75,LR,1528743600,88,6.33,-10.8,80.6,9.17
99,adrar,0,DZ,1528743600,12,27.87,-0.29,100.4,9.17
100,atuona,8,PF,1528746314,100,-9.8,-139.03,79.55,8.72
101,razole,92,IN,1528746462,100,16.48,81.84,81.08,17.78
102,vredendal,12,ZA,1528746462,64,-31.68,18.49,48.41,4.59
103,hithadhoo,100,MV,1528746357,100,-0.6,73.08,83.06,10.18
104,upernavik,76,GL,1528746325,97,72.79,-56.15,30.68,15.55
105,rosetown,92,CA,1528746463,58,51.55,-107.99,52.64,19.69
106,egvekinot,0,RU,1528746463,93,66.32,-179.17,44.99,2.35
107,mallapuram,44,IN,1528746464,80,11.97,78.27,74.6,7.94
108,tranby,0,NO,1528744800,67,59.81,10.27,62.6,8.05
109,lompoc,1,US,1528745700,25,34.64,-120.46,84.2,10.29
110,fortuna,20,ES,1528745400,73,38.18,-1.13,71.6,2.24
111,itoman,40,JP,1528744560,73,26.12,127.67,78.8,8.05
112,cesis,100,LV,1528746465,82,57.31,25.27,64.25,10.18
113,ust-uda,0,RU,1528746465,82,54.17,103.03,48.32,1.57
114,mar del plata,88,AR,1528746301,94,-46.43,-67.52,37.25,6.15
115,venice,1,US,1528743300,62,27.1,-82.45,87.8,11.41
116,port hardy,40,CA,1528743600,71,50.7,-127.42,57.2,8.05
117,leningradskiy,0,RU,1528746410,90,69.38,178.42,34.73,2.13
118,kommunisticheskiy,0,RU,1528746466,85,61.68,64.48,36.17,2.68
119,ventersburg,0,ZA,1528746467,72,-28.08,27.14,37.16,5.93
120,cap-aux-meules,40,CA,1528743600,61,47.38,-61.86,48.2,11.41
121,alakurtti,92,RU,1528746467,94,66.96,30.34,42.74,9.84
122,jieshi,24,CN,1528746467,100,22.82,115.83,77.93,3.24
123,severo-kurilsk,12,RU,1528746304,100,50.68,156.12,38.69,5.82
124,college,90,US,1528745160,87,64.86,-147.8,44.6,4.7
125,rawson,75,AR,1528745100,100,-43.3,-65.11,41.0,10.29
126,burnie,92,AU,1528746469,100,-41.05,145.91,55.88,21.03
127,yellowknife,90,CA,1528743600,87,62.45,-114.38,51.8,25.28
128,karasjok,75,NO,1528744800,80,69.47,25.52,41.0,19.46
129,nanyang,44,CN,1528746470,73,33.0,112.53,69.56,6.26
130,pisco,20,PE,1528743600,68,-13.71,-76.2,69.8,14.99
131,butaritari,68,KI,1528746309,100,3.07,172.79,83.51,8.39
132,lagoa,0,PT,1528745400,60,37.14,-8.45,69.8,12.75
133,lebu,56,ET,1528746352,92,8.96,38.73,51.83,2.91
134,hami,48,CN,1528746471,35,42.84,93.51,69.56,1.9
135,karratha,0,AU,1528746471,66,-20.74,116.85,56.24,4.59
136,yar-sale,64,RU,1528746471,82,66.83,70.83,37.25,5.26
137,isangel,64,VU,1528746311,100,-19.55,169.27,74.24,7.61
138,high level,90,CA,1528745160,93,58.52,-117.13,51.8,13.87
139,talnakh,48,RU,1528746336,71,69.49,88.39,42.92,10.85
140,pedernales,48,EC,1528746472,74,0.07,-80.05,80.63,8.72
141,beian,75,NO,1528744800,76,63.66,9.57,48.2,12.75
142,geraldton,20,CA,1528743600,26,49.72,-86.95,78.8,12.75
143,argentan,92,FR,1528745400,93,48.74,-0.02,59.0,8.05
144,carnarvon,12,ZA,1528746326,60,-30.97,22.13,34.73,4.36
145,shingu,0,JP,1528746474,99,33.72,135.99,71.27,10.29
146,dakoro,0,NE,1528746474,48,14.51,6.76,81.35,9.17
147,masalli,88,KR,1528743600,88,34.8,126.66,66.2,5.82
148,lodja,20,CD,1528746429,46,-3.52,23.6,77.21,3.91
149,sioux lookout,75,CA,1528743600,41,50.1,-91.92,78.8,11.41
150,tuatapere,24,NZ,1528746354,100,-46.13,167.69,39.86,5.14
151,virginia beach,90,US,1528745040,88,36.85,-75.98,73.4,20.8
152,port elizabeth,90,US,1528743960,72,39.31,-74.98,66.2,10.29
153,lafia,92,NG,1528746476,75,8.5,8.51,80.36,1.9
154,bandar,8,ID,1528746476,80,-4.2,104.14,77.21,5.26
155,berekum,24,GH,1528746476,84,7.45,-2.58,76.58,8.28
156,mackenzie,75,CA,1528743600,41,55.34,-123.09,57.2,5.82
157,srednekolymsk,0,RU,1528746477,53,67.46,153.71,60.74,6.38
158,zhuhai,0,CN,1528743600,30,40.71,112.04,59.0,4.47
159,saskylakh,0,RU,1528746381,71,71.97,114.09,50.66,5.14
160,mogadishu,76,SO,1528746242,100,2.04,45.34,79.46,21.7
161,qaanaaq,0,GL,1528746318,96,77.48,-69.36,32.84,5.26
162,san quintin,92,PH,1528746366,95,17.54,120.52,74.51,7.61
163,constitucion,40,MX,1528742640,32,23.99,-104.67,80.6,5.82
164,praia,40,BR,1528743600,53,-20.25,-43.81,75.2,3.36
165,kavaratti,68,IN,1528746334,100,10.57,72.64,80.72,19.8
166,sorland,75,NO,1528743000,75,67.67,12.69,44.6,10.29
167,tuktoyaktuk,40,CA,1528743600,74,69.44,-133.03,35.6,14.99
168,liuzhou,92,CN,1528746480,100,24.32,109.41,73.34,3.58
169,cidreira,36,BR,1528746355,75,-30.17,-50.22,72.8,11.63
170,asyut,0,EG,1528743600,35,27.18,31.19,84.2,14.99
171,port lincoln,44,AU,1528746361,92,-34.72,135.86,57.05,20.13
172,usingen,75,DE,1528744920,88,50.33,8.54,66.2,9.17
173,gobo,75,JP,1528743600,100,33.89,135.15,68.0,4.7
174,bimbo,56,CF,1528743600,88,4.33,18.53,82.4,2.24
175,bolobo,0,CD,1528746482,69,-2.17,16.23,76.58,3.58
176,bisert,20,RU,1528746482,93,56.85,59.05,40.04,5.59
177,maloy,8,ID,1528746482,92,1.0,118.1,75.59,2.01
178,barrow,92,AR,1528746272,81,-38.31,-60.23,51.47,13.2
179,ilulissat,20,GL,1528743000,74,69.22,-51.1,37.4,9.17
180,adelaide,75,AU,1528745760,76,-34.93,138.6,57.2,23.04
181,ituporanga,12,BR,1528746483,76,-27.41,-49.6,67.67,13.53
182,le port,92,FR,1528746484,100,42.87,1.37,45.98,0.89
183,ganzhou,92,CN,1528746484,91,25.86,114.93,68.21,2.24
184,inirida,32,CO,1528746485,81,3.87,-67.92,80.99,2.68
185,lorengau,12,PG,1528746303,100,-2.02,147.27,82.61,9.73
186,santa maria del oro,56,MX,1528746485,25,25.95,-105.37,82.61,5.48
187,havre,20,US,1528743180,22,48.55,-109.68,64.4,20.8
188,bethel,1,US,1528743180,50,60.79,-161.76,55.4,17.22
189,rabat,20,MA,1528745400,72,34.02,-6.83,64.4,8.05
190,ahipara,44,NZ,1528746486,96,-35.17,173.16,56.51,15.66
191,cap malheureux,20,MU,1528743600,78,-19.98,57.61,73.4,6.93
192,mount isa,68,AU,1528743600,71,-20.73,139.49,57.2,8.72
193,rajura,76,IN,1528746487,91,19.78,79.37,75.23,5.93
194,chicama,90,PE,1528743600,82,-7.84,-79.15,66.2,10.29
195,hobart,75,AU,1528743600,86,-42.88,147.33,41.0,8.05
196,beloha,48,MG,1528746319,95,-25.17,45.06,64.52,10.96
197,kayerkan,76,RU,1528746488,84,69.35,87.76,45.26,7.61
198,yerbogachen,76,RU,1528746361,57,61.28,108.01,62.36,7.61
199,kavieng,56,PG,1528746368,100,-2.57,150.8,82.07,3.47
200,opuwo,0,NA,1528746488,54,-18.06,13.84,45.98,2.57
201,urengoy,8,RU,1528746489,81,65.96,78.37,51.29,6.82
202,vila franca do campo,20,PT,1528745400,77,37.72,-25.43,69.8,11.41
203,namatanai,80,PG,1528746317,100,-3.66,152.44,82.43,11.18
204,albany,20,US,1528743240,29,42.65,-73.75,75.2,3.36
205,lima,0,PE,1528746327,63,-12.06,-77.04,67.76,3.58
206,padang,56,ID,1528746323,100,-0.92,100.36,83.69,5.93
207,vanimo,80,PG,1528746490,100,-2.67,141.3,81.62,6.38
208,melo,36,UY,1528746490,98,-32.37,-54.17,59.93,7.61
209,riverton,1,US,1528743180,20,43.02,-108.38,69.8,6.93
210,anadyr,0,RU,1528743600,58,64.73,177.51,53.6,4.47
211,jackson,40,US,1528744500,55,35.61,-88.82,91.4,5.82
212,ust-nera,48,RU,1528746492,66,64.57,143.24,44.36,2.57
213,xining,8,CN,1528746492,77,36.62,101.77,37.79,0.89
214,rimini,0,IT,1528744500,88,44.06,12.57,80.6,4.7
215,umm lajj,0,SA,1528746493,67,25.02,37.27,82.43,6.15
216,creel,92,MX,1528746493,28,27.75,-107.63,78.02,4.25
217,broome,0,GB,1528744800,82,52.47,1.45,68.0,8.05
218,mol,90,BE,1528745100,56,51.18,5.12,69.8,9.17
219,saldanha,8,PT,1528746328,68,41.42,-6.55,58.85,7.94
220,nome,1,US,1528744500,49,30.04,-94.42,91.4,16.11
221,la ronge,75,CA,1528743600,51,55.1,-105.3,59.0,20.8
222,labuhan,24,ID,1528746358,93,-2.54,115.51,72.08,1.57
223,saint george,20,GR,1528743000,50,39.45,22.34,75.2,3.91
224,swan hill,88,AU,1528746379,95,-35.34,143.56,49.22,12.75
225,codrington,0,AU,1528746367,87,-28.95,153.24,41.84,2.68
226,vitkov,0,CZ,1528745400,77,49.77,17.75,69.8,2.24
227,namibe,0,AO,1528746292,100,-15.19,12.15,70.28,6.71
228,labuan,75,BN,1528745400,94,5.28,115.24,78.8,6.38
229,pirai do sul,64,BR,1528746261,71,-24.53,-49.95,70.46,12.97
230,carmaux,100,FR,1528745400,93,44.05,2.16,59.0,8.05
231,vila velha,0,BR,1528743600,54,-3.71,-38.6,84.2,20.8
232,kisii,40,KE,1528743600,73,-0.67,34.77,73.4,4.7
233,necochea,92,AR,1528746383,87,-38.55,-58.74,51.92,12.75
234,ponta delgada,20,PT,1528745400,77,37.73,-25.67,69.8,11.41
235,ushtobe,20,KZ,1528746498,87,45.25,77.98,58.13,2.8
236,jacareacanga,20,BR,1528743600,56,-6.22,-57.76,93.2,5.82
237,ayr,75,GB,1528744800,77,55.46,-4.63,59.0,9.17
238,aklavik,75,CA,1528743600,52,68.22,-135.01,42.8,12.75
239,havoysund,75,NO,1528744800,86,71.0,24.66,39.2,14.99
240,coos bay,20,US,1528743360,72,43.37,-124.22,64.4,5.82
241,araucaria,40,BR,1528743600,65,-25.59,-49.41,77.0,12.75
242,honiara,40,SB,1528745400,94,-9.43,159.96,73.4,3.47
243,paamiut,68,GL,1528746418,98,61.99,-49.67,37.16,8.84
244,baker city,1,US,1528743360,44,44.77,-117.83,59.0,8.05
245,ranong,88,TH,1528746501,96,9.96,98.62,85.04,15.21
246,oranjemund,0,ZA,1528746399,71,-28.55,16.43,68.39,14.54
247,colares,20,PT,1528745400,72,38.8,-9.45,68.0,9.17
248,victoria,75,BN,1528745400,94,5.28,115.24,78.8,6.38
249,macusani,68,PE,1528746502,100,-14.07,-70.43,52.28,2.68
250,itanagar,100,IN,1528746503,100,27.1,93.63,73.34,2.68
251,iwanai,92,JP,1528746299,100,42.97,140.51,54.71,8.95
252,alice springs,0,AU,1528743600,62,-23.7,133.88,57.2,8.05
253,tasiilaq,90,GL,1528743000,55,65.61,-37.64,39.2,14.99
254,taltal,36,CL,1528746505,90,-25.41,-70.49,47.96,2.24
255,narwar,0,IN,1528746505,59,25.64,77.91,84.05,12.3
256,kuala terengganu,75,MY,1528743600,88,5.33,103.14,77.0,3.36
257,burley,1,US,1528743180,29,42.54,-113.79,66.2,17.22
258,east london,0,ZA,1528746304,100,-33.02,27.91,68.03,17.0
259,banjar,68,ID,1528746507,96,-7.37,108.54,71.54,2.57
260,dzerzhinskoye,44,RU,1528746507,95,56.84,95.22,57.41,1.57
261,quelimane,75,MZ,1528743600,88,-17.88,36.89,71.6,4.7
262,daugavpils,80,LV,1528746508,59,55.88,26.53,68.39,9.84
263,lata,12,IN,1528746414,100,30.78,78.62,55.43,2.35
264,oktyabrskoye,0,RU,1528746509,91,56.73,85.44,53.36,2.35
265,son la,92,VN,1528746312,98,21.32,103.9,70.91,1.57
266,aginskoye,88,RU,1528746509,95,51.11,114.54,54.44,3.47
267,tandil,68,AR,1528746509,78,-37.33,-59.14,50.39,9.95
268,atar,0,MR,1528746351,25,20.52,-13.05,84.14,7.38
269,kitimat,90,CA,1528743600,62,54.02,-128.69,53.6,12.75
270,norman wells,90,CA,1528743600,75,65.28,-126.83,44.6,10.29
271,samarkand,0,UZ,1528743600,28,39.65,66.98,73.4,4.7
272,kieta,36,PG,1528746511,100,-6.22,155.63,78.29,4.92
273,cianorte,80,BR,1528746511,63,-23.66,-52.61,81.17,12.3
274,manacor,0,ES,1528745400,68,39.57,3.21,71.6,3.36
275,pontianak,32,ID,1528746512,100,-0.02,109.34,77.21,5.93
276,cabo san lucas,20,MX,1528742520,40,22.89,-109.91,93.2,3.36
277,kamsack,1,CA,1528743600,32,51.56,-101.9,66.2,20.8
278,oyon,68,PE,1528746512,48,-10.67,-76.77,53.36,1.01
279,la macarena,32,CO,1528746513,84,2.18,-73.79,78.65,1.68
280,ilam,0,IR,1528743600,28,33.64,46.42,71.6,2.24
281,olinda,75,EC,1528743600,65,-2.03,-79.75,80.6,8.05
282,tarakan,36,ID,1528746514,100,3.3,117.63,79.73,1.45
283,pemba,75,MZ,1528743600,69,-12.97,40.52,77.0,16.11
284,rio grande,90,BR,1528743600,100,-32.03,-52.1,68.0,13.76
285,porto novo,20,BR,1528743600,51,-23.68,-45.44,82.4,3.36
286,tecoanapa,90,MX,1528742940,74,16.99,-99.26,82.4,6.93
287,estacion coahuila,5,MX,1528743420,12,32.19,-115.0,96.8,4.7
288,mayskiy,75,RU,1528743600,93,43.63,44.06,60.8,4.7
289,lisakovsk,12,KZ,1528746516,59,52.55,62.49,50.12,9.95
290,berea,90,US,1528745100,68,41.37,-81.85,71.6,3.36
291,thunder bay,40,CA,1528743600,42,48.41,-89.26,68.0,13.87
292,touros,0,BR,1528746422,72,-5.2,-35.46,80.54,15.1
293,dunmore town,76,BS,1528746517,100,25.5,-76.65,80.36,7.94
294,san ignacio,12,CL,1528746517,90,-36.8,-72.03,44.45,3.13
295,akdepe,0,TM,1528743600,39,42.05,59.39,78.8,2.24
296,emerald,0,AU,1528746415,80,-23.53,148.16,46.79,1.34
297,tobol,40,SE,1528744800,93,59.83,12.54,57.2,5.82
298,jutai,68,BR,1528746519,55,-1.71,-47.89,86.93,4.81
299,el mante,90,MX,1528742700,41,20.61,-103.43,78.8,6.93
300,tigil,80,RU,1528746520,75,57.8,158.67,49.76,11.74
301,pahrump,1,US,1528743480,6,36.21,-115.98,93.2,4.59
302,abu samrah,8,SY,1528746288,73,35.3,37.18,70.46,11.41
303,tolaga bay,92,NZ,1528746520,96,-38.37,178.3,58.76,24.05
304,hashtrud,0,IR,1528746521,89,37.48,47.05,46.61,1.34
305,kaunas,75,LT,1528744800,72,54.9,23.9,68.0,14.99
306,ceyhan,75,TR,1528744800,83,37.03,35.82,75.2,3.36
307,longyearbyen,75,NO,1528743000,59,78.22,15.63,35.6,8.05
308,tenkodogo,8,BF,1528746522,80,11.78,-0.37,81.89,2.91
309,jalu,0,LY,1528746523,25,29.03,21.55,83.87,9.4
310,aksu,0,KZ,1528743600,87,52.04,76.93,53.6,4.47
311,bouafle,92,FR,1528745400,93,48.96,1.9,68.0,12.75
312,lavrentiya,0,RU,1528746376,95,65.58,-170.99,31.94,1.68
313,bussigny,75,CH,1528744800,68,46.55,6.55,71.6,3.36
314,bereda,90,ES,1528745400,100,43.27,-7.54,59.0,8.05
315,ajdabiya,0,LY,1528746525,63,30.75,20.22,73.79,9.51
316,kampong thum,88,KH,1528746525,89,12.71,104.89,77.21,3.24
317,hualmay,24,PE,1528746148,76,-11.1,-77.61,66.23,7.83
318,gat,0,SN,1528743600,44,14.69,-16.54,93.2,6.93
319,alta floresta,20,BR,1528743600,59,-9.87,-56.08,89.6,2.24
320,esperance,20,TT,1528743600,55,10.24,-61.45,89.6,14.99
321,kampot,68,KH,1528746526,91,10.62,104.18,77.66,2.46
322,grand-santi,80,GF,1528746527,98,4.27,-54.38,75.68,2.35
323,narsaq,75,GL,1528743000,26,60.91,-46.05,55.4,24.16
324,cherskiy,12,RU,1528746329,57,68.75,161.3,56.33,5.26
325,itaqui,76,BR,1528746527,89,-29.13,-56.55,67.49,5.48
326,roald,75,NO,1528744800,100,62.58,6.12,53.6,13.87
327,svencionys,88,LT,1528746528,53,55.15,26.17,69.38,10.96
328,eydhafushi,68,MV,1528746528,100,5.1,73.07,82.25,17.45
329,hobyo,32,SO,1528746529,73,5.35,48.53,79.01,20.02
330,dargaville,100,NZ,1528746529,96,-35.94,173.86,56.15,17.9
331,sao filipe,0,CV,1528746391,99,14.9,-24.5,71.99,17.45
332,puerto barrios,40,GT,1528743600,66,15.72,-88.58,87.8,6.93
333,kirakira,48,SB,1528746321,100,-10.46,161.92,79.82,14.2
334,goulburn,80,AU,1528746530,100,-34.75,149.72,40.04,2.57
335,turayf,0,SA,1528743600,29,31.68,38.65,78.8,11.41
336,perth,40,GB,1528744800,82,56.4,-3.43,57.2,3.36
337,erzin,75,TR,1528744800,83,36.95,36.2,77.0,3.36
338,te anau,32,NZ,1528746531,86,-45.41,167.72,29.87,3.91
339,berdigestyakh,76,RU,1528746532,44,62.1,126.7,57.95,0.78
340,dingle,36,PH,1528746379,95,11.0,122.67,77.84,7.27
341,lalibela,0,ET,1528746532,53,12.04,39.05,56.51,2.01
342,nelson bay,90,AU,1528745400,100,-32.72,152.14,46.4,8.05
343,kangaatsiaq,32,GL,1528746533,96,68.31,-53.46,36.08,8.61
344,bredasdorp,0,ZA,1528743600,87,-34.53,20.04,50.0,3.36
345,pilar,90,AR,1528743600,82,-34.46,-58.91,59.0,5.82
346,biltine,44,TD,1528746534,46,14.53,20.93,85.04,3.58
347,presidente medici,32,BR,1528746534,74,-11.18,-61.9,83.69,2.24
348,maymyo,92,MM,1528746535,98,22.03,96.47,71.09,5.37
349,yashalta,0,RU,1528746535,36,46.34,42.27,64.07,12.19
350,lichtenburg,0,ZA,1528746535,74,-26.15,26.16,35.99,2.91
351,vilcun,92,CL,1528746536,82,-38.65,-72.23,38.51,2.57
352,apac,92,UG,1528746536,93,1.98,32.53,70.19,8.39
353,bahir dar,32,ET,1528746536,90,11.59,37.39,57.23,1.57
354,ende,88,ID,1528746292,100,-8.84,121.65,77.84,6.38
355,danilov,68,RU,1528746537,70,58.19,40.17,55.16,9.95
356,torbay,40,CA,1528743600,81,47.66,-52.73,44.6,11.41
357,chokurdakh,0,RU,1528746538,81,70.62,147.9,40.49,11.18
358,gamba,88,CN,1528746538,93,28.28,88.52,31.22,2.13
359,puerto del rosario,75,ES,1528745400,64,28.5,-13.86,69.8,20.8
360,trincomalee,80,LK,1528746539,75,8.58,81.23,81.53,19.24
361,agadez,0,NE,1528746539,18,16.97,7.99,79.91,4.14
362,grand gaube,20,MU,1528743600,78,-20.01,57.66,73.4,6.93
363,barauna,20,BR,1528746539,54,-14.07,-42.49,74.96,10.51
364,makakilo city,40,US,1528743420,58,21.35,-158.09,82.4,9.17
365,amnat charoen,92,TH,1528746540,98,15.86,104.63,73.88,7.16
366,maine-soroa,0,NE,1528746540,40,13.21,12.02,85.94,6.38
367,port blair,68,IN,1528746410,100,11.67,92.75,82.25,26.51
368,cockburn town,24,TC,1528746492,97,21.46,-71.14,81.17,16.44
369,kedougou,44,SN,1528746541,75,12.56,-12.19,81.17,3.02
370,qandala,12,SO,1528746541,73,11.47,49.87,79.73,3.36
371,kupang,0,ID,1528746133,99,-10.16,123.6,75.59,12.53
372,adwa,20,ET,1528746542,88,14.16,38.9,59.39,2.01
373,chara,20,GR,1528743000,50,39.42,22.43,75.2,3.91
374,zyryanka,0,RU,1528746542,52,65.73,150.89,57.23,8.28
375,kirando,0,TZ,1528746543,100,-7.37,30.62,71.18,3.36
376,xinqing,12,CN,1528746543,92,48.28,129.53,52.46,2.68
377,aitape,88,PG,1528746543,100,-3.15,142.36,80.36,4.59
378,altamira,20,BR,1528743600,55,-3.2,-52.21,89.6,4.7
379,aguilas,8,ES,1528746544,84,37.41,-1.58,67.13,4.7
380,xichang,92,CN,1528746544,100,27.88,102.25,58.04,1.79
381,manaure,75,CO,1528743600,46,11.78,-72.45,93.2,11.41
382,krasnogorskoye,0,RU,1528746545,92,57.7,52.5,41.93,4.47
383,axim,88,GH,1528746545,100,4.87,-2.24,77.39,5.82
384,roebourne,0,AU,1528746404,66,-20.77,117.15,56.24,4.59
385,kiunga,56,PG,1528746546,97,-6.12,141.3,72.98,1.57
386,hamilton,75,BM,1528744560,78,32.3,-64.78,77.0,25.28
387,fairbanks,90,US,1528745160,87,64.84,-147.72,44.6,4.7
388,batemans bay,20,AU,1528746373,100,-35.71,150.18,43.73,4.14
389,iquitos,75,PE,1528743600,94,-3.75,-73.25,75.2,3.36
390,vila do maio,75,CV,1528743600,69,15.13,-23.22,75.2,19.46
391,senanga,0,ZM,1528746547,44,-16.1,23.3,54.89,9.51
392,mersing,88,MY,1528746548,96,2.43,103.84,79.46,8.16
393,atambua,48,ID,1528746341,100,-9.11,124.89,72.8,8.72
394,goderich,0,CA,1528746548,41,43.74,-81.71,72.71,11.18
395,mackay,90,CA,1528743600,46,53.65,-115.58,57.2,25.28
396,koson,0,UZ,1528743600,26,39.04,65.59,71.6,2.24
397,naliya,24,IN,1528746549,83,23.26,68.83,83.15,16.67
398,fort-shevchenko,0,KZ,1528746549,94,44.51,50.26,63.26,12.19
399,tambacounda,0,SN,1528746550,43,13.77,-13.67,91.61,5.93
400,araouane,92,ML,1528746550,19,18.9,-3.53,96.74,3.36
401,pakxe,88,LA,1528746550,99,15.12,105.78,73.16,3.47
402,mayumba,0,GA,1528746400,98,-3.44,10.65,73.25,3.13
403,maragogi,88,BR,1528746371,93,-9.01,-35.22,75.68,8.5
404,kabwe,0,ZM,1528746551,46,-14.44,28.44,59.48,12.08
405,sokolovskoye,8,RU,1528746551,36,45.26,40.66,66.68,10.85
406,vostok,36,RU,1528746350,79,46.45,135.83,45.53,2.57
407,bose,40,IT,1528744800,94,45.46,8.01,73.4,6.93
408,pitkyaranta,88,RU,1528746552,57,61.57,31.48,61.91,9.28
409,zabid,88,YE,1528746552,37,14.2,44.5,65.33,0.22
410,snezhnogorsk,75,RU,1528743600,79,69.19,33.23,33.8,11.18
411,payakumbuh,80,ID,1528746553,74,-0.23,100.63,74.96,2.24
412,roma,0,IT,1528744800,60,41.89,12.48,73.4,2.24
413,santa rosa,92,AR,1528746555,87,-36.62,-64.29,46.79,14.2
414,harper,40,US,1528744500,43,30.3,-99.24,93.2,13.87
415,batticaloa,44,LK,1528746555,95,7.71,81.69,83.51,11.63
416,mehamn,75,NO,1528743000,74,71.03,27.85,39.2,10.29
417,tyrma,56,RU,1528746556,99,50.04,132.17,52.37,3.24
418,ustrzyki dolne,0,UA,1528746556,88,49.43,22.59,64.61,3.8
419,acapulco,90,MX,1528742940,74,16.86,-99.88,82.4,6.93
420,kamaishi,100,JP,1528746557,95,39.28,141.86,59.75,8.28
421,vardo,90,US,1528744500,77,39.62,-77.74,68.0,10.29
422,henties bay,0,NA,1528746557,57,-22.12,14.28,68.39,12.97
423,dubbo,90,AU,1528743600,87,-32.25,148.6,48.2,9.17
424,petropavlovsk-kamchatskiy,90,RU,1528743600,100,53.05,158.65,42.8,4.47
425,pine castle,75,US,1528743360,55,28.47,-81.37,91.4,5.82
426,bam,0,IR,1528746558,21,29.11,58.36,71.36,3.24
427,portland,20,US,1528744260,59,45.52,-122.67,62.6,6.93
428,sabha,36,LY,1528746559,14,27.03,14.43,87.74,7.72
429,imbituba,75,BR,1528743600,78,-28.24,-48.67,73.4,9.17
430,dongsheng,92,CN,1528746559,74,29.72,112.52,72.62,7.16
431,north bend,20,US,1528743360,72,43.41,-124.22,64.4,5.82
432,neuquen,75,AR,1528743600,81,-38.95,-68.06,42.8,6.93
433,porto seguro,90,BR,1528743600,100,-16.44,-39.06,71.6,3.36
434,matamoros,1,US,1528743180,50,25.87,-97.51,95.0,25.28
435,afsin,0,TR,1528746561,86,38.25,36.91,49.58,2.68
436,miami beach,1,US,1528744500,52,45.45,-84.56,80.6,10.29
437,orai,0,IN,1528746561,62,25.99,79.45,86.39,8.39
438,kota kinabalu,75,MY,1528745400,73,5.98,116.07,77.0,6.93
439,soligalich,56,RU,1528746562,72,59.08,42.29,49.13,8.5
440,hay river,90,CA,1528745700,100,60.82,-115.79,46.4,4.7
441,elk plain,75,US,1528744500,55,47.04,-122.37,60.8,3.13
442,caravelas,56,BR,1528746563,99,-17.73,-39.27,76.85,10.29
443,lichinga,0,MZ,1528746563,92,-13.3,35.25,51.47,3.36
444,balkanabat,44,TM,1528746563,47,39.51,54.36,66.41,2.35
445,yazd,76,IR,1528743600,11,31.89,54.36,89.6,9.17
446,bilma,0,NE,1528746419,13,18.69,12.92,77.57,4.59
447,ostrovnoy,92,RU,1528746333,100,68.05,39.51,36.71,12.41
448,klaksvik,88,FO,1528744800,76,62.23,-6.59,48.2,11.41
449,ejigbo,8,NG,1528746564,87,7.9,4.32,76.58,8.5
450,sao gabriel da cachoeira,40,BR,1528743600,59,-0.13,-67.09,89.6,2.24
451,mamallapuram,40,IN,1528745400,55,12.63,80.17,89.6,9.17
452,usinsk,76,RU,1528746565,80,66.0,57.56,37.61,4.59
453,hasaki,75,JP,1528743600,100,35.73,140.83,64.4,3.36
454,san juan,90,PR,1528745580,74,18.47,-66.12,89.6,16.11
455,zhigansk,56,RU,1528746425,50,66.77,123.37,62.36,7.38
456,auki,12,NG,1528746298,70,12.18,6.51,78.65,5.03
457,borogontsy,56,RU,1528746568,36,62.67,131.17,56.78,4.47
458,muncar,92,ID,1528746568,93,-8.43,114.34,78.02,6.38
459,prince rupert,90,CA,1528744680,93,54.32,-130.32,50.0,4.7
460,puerto lumbreras,12,ES,1528746569,59,37.56,-1.81,63.62,2.8
461,skjervoy,75,NO,1528743000,75,70.03,20.97,42.8,3.36
462,sitka,0,US,1528746370,45,37.17,-99.65,95.03,6.04
463,margate,75,AU,1528743600,86,-43.03,147.26,41.0,8.05
464,yeniseysk,68,RU,1528746570,95,58.45,92.17,56.24,2.35
465,filadelfia,0,PY,1528746570,39,-22.35,-60.04,90.62,18.57
466,cervo,20,BR,1528743600,68,-22.19,-46.24,71.6,5.82
467,salinas,1,US,1528745700,33,36.67,-121.66,77.0,5.82
468,bandarbeyla,0,SO,1528746327,81,9.49,50.81,79.28,28.97
469,zalantun,92,CN,1528746572,97,48.0,122.72,58.94,4.92
470,veinticinco de mayo,36,AR,1528746572,75,-27.38,-54.75,72.71,12.41
471,kawalu,76,ID,1528746572,100,-7.38,108.21,67.13,1.68
472,zverinogolovskoye,8,RU,1528746412,77,54.46,64.85,50.57,4.92
473,hervey bay,0,AU,1528746573,100,-25.3,152.85,62.9,4.25
474,komsomolskiy,80,RU,1528746408,97,67.55,63.78,31.94,5.7
475,moosomin,0,CA,1528746574,81,50.14,-101.67,62.72,15.21
476,banyo,68,CM,1528746574,99,6.75,11.81,64.7,2.35
477,tiznit,0,MA,1528746574,85,29.7,-9.73,64.16,6.6
478,comodoro rivadavia,20,AR,1528743600,100,-45.87,-67.48,44.6,3.36
479,bathsheba,40,BB,1528743600,66,13.22,-59.52,86.0,24.16
480,kaitangata,44,NZ,1528746393,84,-46.28,169.85,41.48,14.99
481,behshahr,75,IR,1528743600,88,36.69,53.54,71.6,4.7
482,sibolga,24,ID,1528746575,100,1.74,98.78,68.66,1.79
483,ukiah,1,US,1528743360,36,39.15,-123.21,75.2,5.82
484,maniitsoq,0,GL,1528746576,81,65.42,-52.9,41.03,4.7
485,broken hill,0,AU,1528746294,88,-31.97,141.45,46.52,11.63
486,baoding,0,CN,1528746576,89,38.86,115.49,59.21,3.69
487,nata,75,CY,1528745400,88,34.78,32.57,75.2,9.17
488,tres arroyos,92,AR,1528746577,81,-38.38,-60.28,51.47,13.2
489,olga,1,US,1528743480,39,34.11,-118.17,89.6,9.17
490,chimoio,75,MZ,1528743600,88,-19.11,33.48,62.6,6.93
491,san patricio,0,PY,1528746380,51,-26.98,-56.83,81.17,7.16
492,valkeakoski,75,FI,1528744800,93,61.26,24.03,60.8,3.36
493,fraserburgh,75,GB,1528744800,81,57.69,-2.02,53.6,3.36
494,kholmogory,40,RU,1528743600,57,64.23,41.65,50.0,11.18
495,camacha,75,PT,1528745400,77,33.08,-16.33,68.0,12.75
496,beringovskiy,0,RU,1528746579,92,63.05,179.32,41.03,1.01
497,kroya,12,ID,1528746580,79,-6.5,108.06,74.96,3.36
498,jennings,75,US,1528744500,59,30.22,-92.66,91.4,8.05
499,port shepstone,0,ZA,1528746581,91,-30.74,30.45,65.6,14.99
500,bridlington,75,GB,1528744800,87,54.08,-0.19,64.4,11.41
501,lincoln,75,GB,1528745100,82,53.23,-0.54,68.0,6.93
502,anori,0,BR,1528746582,38,-3.74,-61.66,93.32,6.6
503,rocha,88,UY,1528746426,98,-34.48,-54.34,57.05,11.18
504,cajuru,68,BR,1528746583,60,-21.27,-47.3,74.33,4.59
505,goure,0,NE,1528746583,42,13.98,10.27,85.76,10.07
506,esna,48,RO,1528746583,58,45.2,27.57,73.61,10.18
507,mocuba,0,MZ,1528746583,84,-16.84,36.99,63.71,3.8
508,vytegra,12,RU,1528746584,67,61.01,36.45,58.49,14.65
509,cayenne,20,GF,1528743600,74,4.94,-52.33,84.2,12.75
510,stolin,80,BY,1528746584,84,51.89,26.85,67.31,8.39
511,pudozh,36,RU,1528746585,71,61.81,36.54,58.04,14.76
512,puerto escondido,75,MX,1528742460,74,15.86,-97.07,84.2,5.82
513,kuching,75,MY,1528745400,94,1.56,110.34,78.8,3.36
514,kalianget,12,ID,1528746586,100,-7.74,113.68,72.26,6.15
515,coihaique,0,CL,1528743600,81,-45.58,-72.07,39.2,1.9
516,doaba,0,PK,1528746586,71,33.42,70.74,60.56,3.13
517,guarapari,44,BR,1528746586,94,-20.67,-40.5,74.33,15.66
518,brazzaville,0,CD,1528743600,69,-4.27,15.27,80.6,2.24
519,kenora,90,CA,1528744500,68,49.76,-94.48,68.0,10.29
520,chernyshevskiy,44,RU,1528746587,54,63.01,112.47,56.69,3.69
521,iquique,20,CL,1528743600,68,-20.22,-70.14,66.2,20.8
522,villa guerrero,68,MX,1528746588,63,21.98,-103.59,77.93,1.34
523,killin,20,US,1528743180,52,33.61,-91.74,91.4,9.17
524,san marcos,40,GT,1528743600,58,14.97,-91.79,91.4,4.7
525,ishigaki,64,JP,1528746589,100,24.34,124.16,81.08,16.44
526,sechura,0,PE,1528746339,76,-5.56,-80.82,73.61,13.09
527,canguaretama,20,BR,1528743600,58,-6.38,-35.14,84.2,11.41
528,saint anthony,75,US,1528743360,27,43.97,-111.68,64.4,23.04
529,dunedin,88,NZ,1528746153,96,-45.87,170.5,40.13,8.39
530,priiskovyy,0,RU,1528746590,85,51.93,116.63,51.2,2.8
531,falmouth,20,GB,1528744800,77,50.16,-5.07,64.4,17.22
532,dzhebariki-khaya,88,RU,1528746376,42,62.22,135.8,54.8,5.59
533,vestmannaeyjar,80,IS,1528746326,94,63.44,-20.27,47.69,8.16
534,ambunti,92,PG,1528746591,100,-4.22,142.82,72.44,2.46
535,nara,75,JP,1528743600,100,34.68,135.8,68.0,4.7
536,emba,75,CY,1528745400,88,34.81,32.42,75.2,9.17
537,san jose,92,PH,1528746569,100,15.79,120.99,74.33,2.91
538,qaqortoq,75,GL,1528743000,26,60.72,-46.03,55.4,24.16
539,aldan,92,RU,1528746594,79,58.61,125.39,44.63,5.37
540,marawi,0,PH,1528746354,96,8.0,124.29,64.43,1.01
541,nonantola,40,IT,1528744800,73,44.68,11.04,78.8,2.24
542,tezu,92,IN,1528746413,82,27.93,96.16,68.48,1.57
543,phan thiet,56,VN,1528746595,100,10.93,108.1,79.46,7.16
544,trofors,75,NO,1528744800,70,65.54,13.39,46.4,5.82
545,turukhansk,56,RU,1528746595,92,65.8,87.96,57.59,9.17
546,aketi,0,CD,1528746595,82,2.74,23.78,77.21,2.68
547,katiola,24,CI,1528746596,82,8.14,-5.1,78.02,6.82
548,maldonado,90,UY,1528743600,93,-34.91,-54.96,57.2,11.41
549,sinnamary,92,GF,1528746596,100,5.38,-52.96,78.2,8.05
550,brae,88,GB,1528744800,66,60.4,-1.35,53.6,11.41
551,berlevag,75,NO,1528743000,74,70.86,29.09,37.4,10.29
552,illela,8,NG,1528746597,69,12.25,4.3,82.43,4.03
553,mondlo,32,ZA,1528746598,91,-27.96,30.72,43.28,2.91
554,hinton,56,CA,1528746598,36,53.4,-117.57,51.29,9.84
555,ginda,12,IN,1528746598,100,30.69,78.49,55.43,2.35
556,coquimbo,20,CL,1528743600,58,-29.95,-71.34,57.2,6.93
557,kirensk,56,RU,1528746599,82,57.78,108.12,56.33,3.91
558,hailar,32,CN,1528746600,93,49.2,119.7,55.43,11.63
559,victor harbor,75,AU,1528745760,76,-35.55,138.62,57.2,23.04
560,ouadda,0,CF,1528746600,88,8.07,22.4,74.24,4.14
561,guerrero negro,0,MX,1528746600,50,27.97,-114.04,78.02,12.97
562,ust-tsilma,44,RU,1528746601,83,65.44,52.15,34.64,2.35
563,honningsvag,75,NO,1528743000,100,70.98,25.97,39.2,14.99
564,nieuw amsterdam,40,SR,1528743600,70,5.88,-55.08,86.0,13.87
565,pemalang,24,ID,1528746602,100,-6.89,109.38,81.62,10.4
566,peniche,20,PT,1528745400,72,39.36,-9.38,64.4,9.17
567,bowen,0,AU,1528743600,93,-20.01,148.25,53.6,4.7
568,jasper,12,US,1528745700,55,33.83,-87.28,89.6,4.25
569,dong hoi,64,VN,1528746603,87,17.48,106.6,84.23,26.96
570,clarence town,90,AU,1528745400,100,-32.59,151.78,46.4,8.05
571,kijang,75,KR,1528743600,72,35.24,129.21,62.6,9.17
572,innisfail,90,CA,1528743600,41,52.02,-113.95,57.2,20.8
573,luanda,0,AO,1528746604,98,-8.83,13.24,72.53,6.15
574,kahului,20,US,1528744440,61,20.89,-156.47,80.6,19.46
